{
  "lastUpdated": "2026-03-14T12:07:31.780Z",
  "airports": [
    {
      "icao": "LLBG",
      "name": "Ben Gurion International",
      "city": "Tel Aviv",
      "country": "Israel",
      "lat": 32.0114,
      "lon": 34.8867,
      "status": "closed",
      "statusLabel": "Do Not Fly",
      "riskLevel": 1,
      "riskText": "One - Do Not Fly",
      "warnings": [
        "Notam LIRR E2886/25",
        "AIC 21/25"
      ]
    },
    {
      "icao": "LLER",
      "name": "Ramon International",
      "city": "Eilat",
      "country": "Israel",
      "lat": 29.7237,
      "lon": 35.0124,
      "status": "closed",
      "statusLabel": "Do Not Fly",
      "riskLevel": 1,
      "riskText": "One - Do Not Fly",
      "warnings": [
        "Notam LIRR E2886/25",
        "AIC 21/25"
      ]
    },
    {
      "icao": "OLBA",
      "name": "Rafic Hariri International",
      "city": "Beirut",
      "country": "Lebanon",
      "lat": 33.8209,
      "lon": 35.4884,
      "status": "closed",
      "statusLabel": "Do Not Fly",
      "riskLevel": 1,
      "riskText": "One - Do Not Fly",
      "warnings": [
        "Notam LFFF F0437/26",
        "Notam EDWW B0112/26",
        "Notam LIRR E2882/25",
        "Notam  EGTT V0042/25",
        "Notam OLBB A0276/25"
      ]
    },
    {
      "icao": "OSDI",
      "name": "Damascus International",
      "city": "Damascus",
      "country": "Syria",
      "lat": 33.4115,
      "lon": 36.5156,
      "status": "closed",
      "statusLabel": "Do Not Fly",
      "riskLevel": 1,
      "riskText": "One - Do Not Fly",
      "warnings": [
        "Notam EDWW B0065/26",
        "Notam LIRR E2875/25",
        "AIC 21/25",
        "SFAR 114",
        "AIC 002/26"
      ]
    },
    {
      "icao": "OSAP",
      "name": "Aleppo International",
      "city": "Aleppo",
      "country": "Syria",
      "lat": 36.1807,
      "lon": 37.2244,
      "status": "closed",
      "statusLabel": "Do Not Fly",
      "riskLevel": 1,
      "riskText": "One - Do Not Fly",
      "warnings": [
        "Notam EDWW B0065/26",
        "Notam LIRR E2875/25",
        "AIC 21/25",
        "SFAR 114",
        "AIC 002/26"
      ]
    },
    {
      "icao": "OJAM",
      "name": "Queen Alia International",
      "city": "Amman",
      "country": "Jordan",
      "lat": 31.7226,
      "lon": 35.9932,
      "status": "caution",
      "statusLabel": "Exercise Caution",
      "riskLevel": 3,
      "riskText": "Three - Caution",
      "warnings": [
        "Notam LFFF F0442/26"
      ]
    },
    {
      "icao": "ORBI",
      "name": "Baghdad International",
      "city": "Baghdad",
      "country": "Iraq",
      "lat": 33.2625,
      "lon": 44.2346,
      "status": "at-risk",
      "statusLabel": "Danger Exists",
      "riskLevel": 2,
      "riskText": "Two - Danger exists",
      "warnings": [
        "Notam LFFF F0435/26",
        "Notam LIRR E2880/25",
        "AIC 002/26",
        "CZIB 2017-04R19",
        "Notam ORBB A0664/25"
      ]
    },
    {
      "icao": "ORER",
      "name": "Erbil International",
      "city": "Erbil",
      "country": "Iraq",
      "lat": 36.2376,
      "lon": 43.9632,
      "status": "at-risk",
      "statusLabel": "Danger Exists",
      "riskLevel": 2,
      "riskText": "Two - Danger exists",
      "warnings": [
        "Notam LFFF F0435/26",
        "Notam LIRR E2880/25",
        "AIC 002/26",
        "CZIB 2017-04R19",
        "Notam ORBB A0664/25"
      ]
    },
    {
      "icao": "ORMM",
      "name": "Basra International",
      "city": "Basra",
      "country": "Iraq",
      "lat": 30.5491,
      "lon": 47.6621,
      "status": "at-risk",
      "statusLabel": "Danger Exists",
      "riskLevel": 2,
      "riskText": "Two - Danger exists",
      "warnings": [
        "Notam LFFF F0435/26",
        "Notam LIRR E2880/25",
        "AIC 002/26",
        "CZIB 2017-04R19",
        "Notam ORBB A0664/25"
      ]
    },
    {
      "icao": "OIIE",
      "name": "Imam Khomeini International",
      "city": "Tehran",
      "country": "Iran",
      "lat": 35.4161,
      "lon": 51.1522,
      "status": "closed",
      "statusLabel": "Do Not Fly",
      "riskLevel": 1,
      "riskText": "One - Do Not Fly",
      "warnings": [
        "Notam LFFF F0434/26",
        "CZIB 2026-03-R1",
        "Notam EDWW B0082/26",
        "CZIB 2026-02 R1",
        "Notam LIRR E2877/25"
      ]
    },
    {
      "icao": "OISS",
      "name": "Shiraz International",
      "city": "Shiraz",
      "country": "Iran",
      "lat": 29.5392,
      "lon": 52.5899,
      "status": "closed",
      "statusLabel": "Do Not Fly",
      "riskLevel": 1,
      "riskText": "One - Do Not Fly",
      "warnings": [
        "Notam LFFF F0434/26",
        "CZIB 2026-03-R1",
        "Notam EDWW B0082/26",
        "CZIB 2026-02 R1",
        "Notam LIRR E2877/25"
      ]
    },
    {
      "icao": "OIBB",
      "name": "Bandar Abbas International",
      "city": "Bandar Abbas",
      "country": "Iran",
      "lat": 27.2183,
      "lon": 56.3778,
      "status": "closed",
      "statusLabel": "Do Not Fly",
      "riskLevel": 1,
      "riskText": "One - Do Not Fly",
      "warnings": [
        "Notam LFFF F0434/26",
        "CZIB 2026-03-R1",
        "Notam EDWW B0082/26",
        "CZIB 2026-02 R1",
        "Notam LIRR E2877/25"
      ]
    },
    {
      "icao": "OMDB",
      "name": "Dubai International",
      "city": "Dubai",
      "country": "UAE",
      "lat": 25.2528,
      "lon": 55.3644,
      "status": "caution",
      "statusLabel": "Exercise Caution",
      "riskLevel": 3,
      "riskText": "Three - Caution",
      "warnings": [
        "Notam LFFF F0436/26"
      ]
    },
    {
      "icao": "OMAA",
      "name": "Abu Dhabi International",
      "city": "Abu Dhabi",
      "country": "UAE",
      "lat": 24.444,
      "lon": 54.6511,
      "status": "caution",
      "statusLabel": "Exercise Caution",
      "riskLevel": 3,
      "riskText": "Three - Caution",
      "warnings": [
        "Notam LFFF F0436/26"
      ]
    },
    {
      "icao": "OMSJ",
      "name": "Sharjah International",
      "city": "Sharjah",
      "country": "UAE",
      "lat": 25.3286,
      "lon": 55.5172,
      "status": "caution",
      "statusLabel": "Exercise Caution",
      "riskLevel": 3,
      "riskText": "Three - Caution",
      "warnings": [
        "Notam LFFF F0436/26"
      ]
    },
    {
      "icao": "OTHH",
      "name": "Hamad International",
      "city": "Doha",
      "country": "Qatar",
      "lat": 25.2731,
      "lon": 51.6081,
      "status": "caution",
      "statusLabel": "Exercise Caution",
      "riskLevel": 3,
      "riskText": "Three - Caution",
      "warnings": [
        "Notam LFFF F0439/26"
      ]
    },
    {
      "icao": "OBBI",
      "name": "Bahrain International",
      "city": "Manama",
      "country": "Bahrain",
      "lat": 26.2708,
      "lon": 50.6336,
      "status": "caution",
      "statusLabel": "Exercise Caution",
      "riskLevel": 3,
      "riskText": "Three - Caution",
      "warnings": [
        "Notam LFFF F0441/26"
      ]
    },
    {
      "icao": "OKBK",
      "name": "Kuwait International",
      "city": "Kuwait City",
      "country": "Kuwait",
      "lat": 29.2267,
      "lon": 47.9689,
      "status": "caution",
      "statusLabel": "Exercise Caution",
      "riskLevel": 3,
      "riskText": "Three - Caution",
      "warnings": [
        "Notam LFFF F0440/26"
      ]
    },
    {
      "icao": "OERK",
      "name": "King Khalid International",
      "city": "Riyadh",
      "country": "Saudi Arabia",
      "lat": 24.9576,
      "lon": 46.6988,
      "status": "caution",
      "statusLabel": "Exercise Caution",
      "riskLevel": 3,
      "riskText": "Three - Caution",
      "warnings": [
        "Notam LFFF F0433/26",
        "Notam LIRR E2890/25",
        "AIC 002/26",
        "AIC 21/25",
        "Notam OEJD W0120/21"
      ]
    },
    {
      "icao": "OEJN",
      "name": "King Abdulaziz International",
      "city": "Jeddah",
      "country": "Saudi Arabia",
      "lat": 21.6796,
      "lon": 39.1565,
      "status": "caution",
      "statusLabel": "Exercise Caution",
      "riskLevel": 3,
      "riskText": "Three - Caution",
      "warnings": [
        "Notam LFFF F0433/26",
        "Notam LIRR E2890/25",
        "AIC 002/26",
        "AIC 21/25",
        "Notam OEJD W0120/21"
      ]
    },
    {
      "icao": "OEDF",
      "name": "King Fahd International",
      "city": "Dammam",
      "country": "Saudi Arabia",
      "lat": 26.4712,
      "lon": 49.7979,
      "status": "caution",
      "statusLabel": "Exercise Caution",
      "riskLevel": 3,
      "riskText": "Three - Caution",
      "warnings": [
        "Notam LFFF F0433/26",
        "Notam LIRR E2890/25",
        "AIC 002/26",
        "AIC 21/25",
        "Notam OEJD W0120/21"
      ]
    },
    {
      "icao": "OOMS",
      "name": "Muscat International",
      "city": "Muscat",
      "country": "Oman",
      "lat": 23.5933,
      "lon": 58.2844,
      "status": "caution",
      "statusLabel": "Exercise Caution",
      "riskLevel": 3,
      "riskText": "Three - Caution",
      "warnings": [
        "Notam LFFF F0438/26"
      ]
    },
    {
      "icao": "OYSN",
      "name": "Sana'a International",
      "city": "Sana'a",
      "country": "Yemen",
      "lat": 15.4763,
      "lon": 44.2197,
      "status": "closed",
      "statusLabel": "Do Not Fly",
      "riskLevel": 1,
      "riskText": "One - Do Not Fly",
      "warnings": [
        "Notam LIRR E2884/25",
        "SFAR 115",
        "AIC 08/25",
        "AIC 002/26",
        "AIC 21/25"
      ]
    },
    {
      "icao": "OYAA",
      "name": "Aden International",
      "city": "Aden",
      "country": "Yemen",
      "lat": 12.8295,
      "lon": 45.0288,
      "status": "closed",
      "statusLabel": "Do Not Fly",
      "riskLevel": 1,
      "riskText": "One - Do Not Fly",
      "warnings": [
        "Notam LIRR E2884/25",
        "SFAR 115",
        "AIC 08/25",
        "AIC 002/26",
        "AIC 21/25"
      ]
    },
    {
      "icao": "HECA",
      "name": "Cairo International",
      "city": "Cairo",
      "country": "Egypt",
      "lat": 30.1219,
      "lon": 31.4056,
      "status": "caution",
      "statusLabel": "Exercise Caution",
      "riskLevel": 3,
      "riskText": "Three - Caution",
      "warnings": [
        "UK AIP ENR 1.1 (1.4.5)"
      ]
    },
    {
      "icao": "HEGN",
      "name": "Hurghada International",
      "city": "Hurghada",
      "country": "Egypt",
      "lat": 27.1784,
      "lon": 33.7994,
      "status": "caution",
      "statusLabel": "Exercise Caution",
      "riskLevel": 3,
      "riskText": "Three - Caution",
      "warnings": [
        "UK AIP ENR 1.1 (1.4.5)"
      ]
    },
    {
      "icao": "HESH",
      "name": "Sharm El Sheikh International",
      "city": "Sharm El Sheikh",
      "country": "Egypt",
      "lat": 27.9773,
      "lon": 34.395,
      "status": "caution",
      "statusLabel": "Exercise Caution",
      "riskLevel": 3,
      "riskText": "Three - Caution",
      "warnings": [
        "UK AIP ENR 1.1 (1.4.5)"
      ]
    },
    {
      "icao": "LCLK",
      "name": "Larnaca International",
      "city": "Larnaca",
      "country": "Cyprus",
      "lat": 34.8751,
      "lon": 33.6249,
      "status": "caution",
      "statusLabel": "Exercise Caution",
      "riskLevel": 3,
      "riskText": "Three - Caution",
      "warnings": [
        "Notam LCCC A1364/25",
        "Notam LIRR E1537/25",
        "Notam LCCC A1315/25",
        "Notam KICZ A0009/18",
        "Notam LCEN N0068/18"
      ]
    },
    {
      "icao": "LCPH",
      "name": "Paphos International",
      "city": "Paphos",
      "country": "Cyprus",
      "lat": 34.718,
      "lon": 32.4857,
      "status": "caution",
      "statusLabel": "Exercise Caution",
      "riskLevel": 3,
      "riskText": "Three - Caution",
      "warnings": [
        "Notam LCCC A1364/25",
        "Notam LIRR E1537/25",
        "Notam LCCC A1315/25",
        "Notam KICZ A0009/18",
        "Notam LCEN N0068/18"
      ]
    },
    {
      "icao": "LTFM",
      "name": "Istanbul Airport",
      "city": "Istanbul",
      "country": "Turkey",
      "lat": 41.2608,
      "lon": 28.7419,
      "status": "caution",
      "statusLabel": "Exercise Caution",
      "riskLevel": 3,
      "riskText": "Three - Caution",
      "warnings": [
        "Notam  LTAA A5946/25"
      ]
    },
    {
      "icao": "LTFJ",
      "name": "Sabiha Gökçen International",
      "city": "Istanbul",
      "country": "Turkey",
      "lat": 40.8986,
      "lon": 29.3092,
      "status": "caution",
      "statusLabel": "Exercise Caution",
      "riskLevel": 3,
      "riskText": "Three - Caution",
      "warnings": [
        "Notam  LTAA A5946/25"
      ]
    },
    {
      "icao": "LTAC",
      "name": "Esenboğa International",
      "city": "Ankara",
      "country": "Turkey",
      "lat": 40.1281,
      "lon": 32.9951,
      "status": "caution",
      "statusLabel": "Exercise Caution",
      "riskLevel": 3,
      "riskText": "Three - Caution",
      "warnings": [
        "Notam  LTAA A5946/25"
      ]
    },
    {
      "icao": "OPKC",
      "name": "Jinnah International",
      "city": "Karachi",
      "country": "Pakistan",
      "lat": 24.9065,
      "lon": 67.1609,
      "status": "at-risk",
      "statusLabel": "Danger Exists",
      "riskLevel": 2,
      "riskText": "Two - Danger exists",
      "warnings": [
        "Notam LIRR E2887/25",
        "AIC 08/25",
        "AIC 002/26",
        "CZIB 2018-02 R19"
      ]
    },
    {
      "icao": "OPLA",
      "name": "Allama Iqbal International",
      "city": "Lahore",
      "country": "Pakistan",
      "lat": 31.5216,
      "lon": 74.4036,
      "status": "at-risk",
      "statusLabel": "Danger Exists",
      "riskLevel": 2,
      "riskText": "Two - Danger exists",
      "warnings": [
        "Notam LIRR E2887/25",
        "AIC 08/25",
        "AIC 002/26",
        "CZIB 2018-02 R19"
      ]
    },
    {
      "icao": "OPRN",
      "name": "Islamabad International",
      "city": "Islamabad",
      "country": "Pakistan",
      "lat": 33.5605,
      "lon": 72.8495,
      "status": "at-risk",
      "statusLabel": "Danger Exists",
      "riskLevel": 2,
      "riskText": "Two - Danger exists",
      "warnings": [
        "Notam LIRR E2887/25",
        "AIC 08/25",
        "AIC 002/26",
        "CZIB 2018-02 R19"
      ]
    },
    {
      "icao": "OAKB",
      "name": "Hamid Karzai International",
      "city": "Kabul",
      "country": "Afghanistan",
      "lat": 34.5659,
      "lon": 69.2124,
      "status": "at-risk",
      "statusLabel": "Danger Exists",
      "riskLevel": 2,
      "riskText": "Two - Danger exists",
      "warnings": [
        "Notam EGTT V0011/26",
        "Notam EGTT V0004/26",
        "Notam LIRR E2879/25",
        "SFAR 119",
        "AIC 08/25"
      ]
    },
    {
      "icao": "HLLT",
      "name": "Mitiga International",
      "city": "Tripoli",
      "country": "Libya",
      "lat": 32.8941,
      "lon": 13.276,
      "status": "closed",
      "statusLabel": "Do Not Fly",
      "riskLevel": 1,
      "riskText": "One - Do Not Fly",
      "warnings": [
        "Notam EGTT V0009/26",
        "SFAR 112",
        "AIC 08/25",
        "AIC 002/25",
        "AIC 21/25"
      ]
    },
    {
      "icao": "HLLB",
      "name": "Benina International",
      "city": "Benghazi",
      "country": "Libya",
      "lat": 32.0968,
      "lon": 20.2694,
      "status": "closed",
      "statusLabel": "Do Not Fly",
      "riskLevel": 1,
      "riskText": "One - Do Not Fly",
      "warnings": [
        "Notam EGTT V0009/26",
        "SFAR 112",
        "AIC 08/25",
        "AIC 002/25",
        "AIC 21/25"
      ]
    },
    {
      "icao": "HSSS",
      "name": "Khartoum International",
      "city": "Khartoum",
      "country": "Sudan",
      "lat": 15.5895,
      "lon": 32.5532,
      "status": "closed",
      "statusLabel": "Do Not Fly",
      "riskLevel": 1,
      "riskText": "One - Do Not Fly",
      "warnings": [
        "Notam LIRR E2889/25",
        "AIC 002/26",
        "AIC 21/25",
        "CZIB 2023-01 R7",
        "AIC 08/25"
      ]
    },
    {
      "icao": "HCMM",
      "name": "Aden Abdulle International",
      "city": "Mogadishu",
      "country": "Somalia",
      "lat": 2.0144,
      "lon": 45.3047,
      "status": "at-risk",
      "statusLabel": "Danger Exists",
      "riskLevel": 2,
      "riskText": "Two - Danger exists",
      "warnings": [
        "Notam LIRR E2888/25",
        "AIC 002/26",
        "SFAR 107",
        "AIC 21/25",
        "Notam A0035/18"
      ]
    }
  ],
  "summary": {
    "total": 40,
    "closed": 13,
    "atRisk": 8,
    "caution": 19,
    "operational": 0
  }
}