{
  "lastUpdated": "2026-03-02T14:04:48.326Z",
  "airports": [
    {
      "icao": "LLBG",
      "name": "Ben Gurion International",
      "city": "Tel Aviv",
      "country": "Israel",
      "lat": 32.0114,
      "lon": 34.8867,
      "status": "closed",
      "statusLabel": "Do Not Fly",
      "riskLevel": 1,
      "riskText": "One - Do Not Fly",
      "warnings": [
        "Notam LIRR E2886/25",
        "AIC 21/25"
      ],
      "delays": []
    },
    {
      "icao": "LLER",
      "name": "Ramon International",
      "city": "Eilat",
      "country": "Israel",
      "lat": 29.7237,
      "lon": 35.0124,
      "status": "closed",
      "statusLabel": "Do Not Fly",
      "riskLevel": 1,
      "riskText": "One - Do Not Fly",
      "warnings": [
        "Notam LIRR E2886/25",
        "AIC 21/25"
      ],
      "delays": []
    },
    {
      "icao": "OLBA",
      "name": "Rafic Hariri International",
      "city": "Beirut",
      "country": "Lebanon",
      "lat": 33.8209,
      "lon": 35.4884,
      "status": "closed",
      "statusLabel": "Do Not Fly",
      "riskLevel": 1,
      "riskText": "One - Do Not Fly",
      "warnings": [
        "Notam LIRR E2882/25",
        "Notam  EGTT V0042/25",
        "Notam OLBB A0276/25",
        "CZIB 2024-01 R7",
        "AIC 21/25"
      ],
      "delays": []
    },
    {
      "icao": "OSDI",
      "name": "Damascus International",
      "city": "Damascus",
      "country": "Syria",
      "lat": 33.4115,
      "lon": 36.5156,
      "status": "closed",
      "statusLabel": "Do Not Fly",
      "riskLevel": 1,
      "riskText": "One - Do Not Fly",
      "warnings": [
        "Notam EDWW B0065/26",
        "Notam LIRR E2875/25",
        "AIC 21/25",
        "SFAR 114",
        "AIC 002/26"
      ],
      "delays": []
    },
    {
      "icao": "OSAP",
      "name": "Aleppo International",
      "city": "Aleppo",
      "country": "Syria",
      "lat": 36.1807,
      "lon": 37.2244,
      "status": "closed",
      "statusLabel": "Do Not Fly",
      "riskLevel": 1,
      "riskText": "One - Do Not Fly",
      "warnings": [
        "Notam EDWW B0065/26",
        "Notam LIRR E2875/25",
        "AIC 21/25",
        "SFAR 114",
        "AIC 002/26"
      ],
      "delays": []
    },
    {
      "icao": "OJAM",
      "name": "Queen Alia International",
      "city": "Amman",
      "country": "Jordan",
      "lat": 31.7226,
      "lon": 35.9932,
      "status": "caution",
      "statusLabel": "Exercise Caution",
      "riskLevel": 3,
      "riskText": "Three - Caution",
      "warnings": [],
      "delays": []
    },
    {
      "icao": "ORBI",
      "name": "Baghdad International",
      "city": "Baghdad",
      "country": "Iraq",
      "lat": 33.2625,
      "lon": 44.2346,
      "status": "at-risk",
      "statusLabel": "Danger Exists",
      "riskLevel": 2,
      "riskText": "Two - Danger exists",
      "warnings": [
        "Notam LIRR E2880/25",
        "AIC 002/26",
        "CZIB 2017-04R19",
        "Notam ORBB A0664/25",
        "SFAR 77"
      ],
      "delays": []
    },
    {
      "icao": "ORER",
      "name": "Erbil International",
      "city": "Erbil",
      "country": "Iraq",
      "lat": 36.2376,
      "lon": 43.9632,
      "status": "at-risk",
      "statusLabel": "Danger Exists",
      "riskLevel": 2,
      "riskText": "Two - Danger exists",
      "warnings": [
        "Notam LIRR E2880/25",
        "AIC 002/26",
        "CZIB 2017-04R19",
        "Notam ORBB A0664/25",
        "SFAR 77"
      ],
      "delays": []
    },
    {
      "icao": "ORMM",
      "name": "Basra International",
      "city": "Basra",
      "country": "Iraq",
      "lat": 30.5491,
      "lon": 47.6621,
      "status": "at-risk",
      "statusLabel": "Danger Exists",
      "riskLevel": 2,
      "riskText": "Two - Danger exists",
      "warnings": [
        "Notam LIRR E2880/25",
        "AIC 002/26",
        "CZIB 2017-04R19",
        "Notam ORBB A0664/25",
        "SFAR 77"
      ],
      "delays": []
    },
    {
      "icao": "OIIE",
      "name": "Imam Khomeini International",
      "city": "Tehran",
      "country": "Iran",
      "lat": 35.4161,
      "lon": 51.1522,
      "status": "closed",
      "statusLabel": "Do Not Fly",
      "riskLevel": 1,
      "riskText": "One - Do Not Fly",
      "warnings": [
        "Notam EDWW B0082/26",
        "CZIB 2026-02 R1",
        "Notam LIRR E2877/25",
        "AIC 08/25",
        "SFAR 117"
      ],
      "delays": []
    },
    {
      "icao": "OISS",
      "name": "Shiraz International",
      "city": "Shiraz",
      "country": "Iran",
      "lat": 29.5392,
      "lon": 52.5899,
      "status": "closed",
      "statusLabel": "Do Not Fly",
      "riskLevel": 1,
      "riskText": "One - Do Not Fly",
      "warnings": [
        "Notam EDWW B0082/26",
        "CZIB 2026-02 R1",
        "Notam LIRR E2877/25",
        "AIC 08/25",
        "SFAR 117"
      ],
      "delays": []
    },
    {
      "icao": "OIBB",
      "name": "Bandar Abbas International",
      "city": "Bandar Abbas",
      "country": "Iran",
      "lat": 27.2183,
      "lon": 56.3778,
      "status": "closed",
      "statusLabel": "Do Not Fly",
      "riskLevel": 1,
      "riskText": "One - Do Not Fly",
      "warnings": [
        "Notam EDWW B0082/26",
        "CZIB 2026-02 R1",
        "Notam LIRR E2877/25",
        "AIC 08/25",
        "SFAR 117"
      ],
      "delays": []
    },
    {
      "icao": "OMDB",
      "name": "Dubai International",
      "city": "Dubai",
      "country": "UAE",
      "lat": 25.2528,
      "lon": 55.3644,
      "status": "operational",
      "statusLabel": "Operational",
      "riskLevel": 0,
      "riskText": "No Warnings",
      "warnings": [
        "Notam OMAE A0404/21"
      ],
      "delays": []
    },
    {
      "icao": "OMAA",
      "name": "Abu Dhabi International",
      "city": "Abu Dhabi",
      "country": "UAE",
      "lat": 24.444,
      "lon": 54.6511,
      "status": "operational",
      "statusLabel": "Operational",
      "riskLevel": 0,
      "riskText": "No Warnings",
      "warnings": [
        "Notam OMAE A0404/21"
      ],
      "delays": []
    },
    {
      "icao": "OMSJ",
      "name": "Sharjah International",
      "city": "Sharjah",
      "country": "UAE",
      "lat": 25.3286,
      "lon": 55.5172,
      "status": "operational",
      "statusLabel": "Operational",
      "riskLevel": 0,
      "riskText": "No Warnings",
      "warnings": [
        "Notam OMAE A0404/21"
      ],
      "delays": []
    },
    {
      "icao": "OTHH",
      "name": "Hamad International",
      "city": "Doha",
      "country": "Qatar",
      "lat": 25.2731,
      "lon": 51.6081,
      "status": "operational",
      "statusLabel": "Operational",
      "riskLevel": 0,
      "riskText": "No Warnings",
      "warnings": [],
      "delays": []
    },
    {
      "icao": "OBBI",
      "name": "Bahrain International",
      "city": "Manama",
      "country": "Bahrain",
      "lat": 26.2708,
      "lon": 50.6336,
      "status": "caution",
      "statusLabel": "Exercise Caution",
      "riskLevel": 3,
      "riskText": "Three - Caution",
      "warnings": [],
      "delays": []
    },
    {
      "icao": "OKBK",
      "name": "Kuwait International",
      "city": "Kuwait City",
      "country": "Kuwait",
      "lat": 29.2267,
      "lon": 47.9689,
      "status": "operational",
      "statusLabel": "Operational",
      "riskLevel": 0,
      "riskText": "No Warnings",
      "warnings": [],
      "delays": []
    },
    {
      "icao": "OERK",
      "name": "King Khalid International",
      "city": "Riyadh",
      "country": "Saudi Arabia",
      "lat": 24.9576,
      "lon": 46.6988,
      "status": "at-risk",
      "statusLabel": "Danger Exists",
      "riskLevel": 2,
      "riskText": "Two - Danger exists",
      "warnings": [
        "Notam LIRR E2890/25",
        "AIC 002/26",
        "AIC 21/25",
        "Notam OEJD W0120/21"
      ],
      "delays": []
    },
    {
      "icao": "OEJN",
      "name": "King Abdulaziz International",
      "city": "Jeddah",
      "country": "Saudi Arabia",
      "lat": 21.6796,
      "lon": 39.1565,
      "status": "at-risk",
      "statusLabel": "Danger Exists",
      "riskLevel": 2,
      "riskText": "Two - Danger exists",
      "warnings": [
        "Notam LIRR E2890/25",
        "AIC 002/26",
        "AIC 21/25",
        "Notam OEJD W0120/21"
      ],
      "delays": []
    },
    {
      "icao": "OEDF",
      "name": "King Fahd International",
      "city": "Dammam",
      "country": "Saudi Arabia",
      "lat": 26.4712,
      "lon": 49.7979,
      "status": "at-risk",
      "statusLabel": "Danger Exists",
      "riskLevel": 2,
      "riskText": "Two - Danger exists",
      "warnings": [
        "Notam LIRR E2890/25",
        "AIC 002/26",
        "AIC 21/25",
        "Notam OEJD W0120/21"
      ],
      "delays": []
    },
    {
      "icao": "OOMS",
      "name": "Muscat International",
      "city": "Muscat",
      "country": "Oman",
      "lat": 23.5933,
      "lon": 58.2844,
      "status": "operational",
      "statusLabel": "Operational",
      "riskLevel": 0,
      "riskText": "No Warnings",
      "warnings": [],
      "delays": []
    },
    {
      "icao": "OYSN",
      "name": "Sana'a International",
      "city": "Sana'a",
      "country": "Yemen",
      "lat": 15.4763,
      "lon": 44.2197,
      "status": "closed",
      "statusLabel": "Do Not Fly",
      "riskLevel": 1,
      "riskText": "One - Do Not Fly",
      "warnings": [
        "Notam LIRR E2884/25",
        "SFAR 115",
        "AIC 08/25",
        "AIC 002/26",
        "AIC 21/25"
      ],
      "delays": []
    },
    {
      "icao": "OYAA",
      "name": "Aden International",
      "city": "Aden",
      "country": "Yemen",
      "lat": 12.8295,
      "lon": 45.0288,
      "status": "closed",
      "statusLabel": "Do Not Fly",
      "riskLevel": 1,
      "riskText": "One - Do Not Fly",
      "warnings": [
        "Notam LIRR E2884/25",
        "SFAR 115",
        "AIC 08/25",
        "AIC 002/26",
        "AIC 21/25"
      ],
      "delays": []
    },
    {
      "icao": "HECA",
      "name": "Cairo International",
      "city": "Cairo",
      "country": "Egypt",
      "lat": 30.1219,
      "lon": 31.4056,
      "status": "caution",
      "statusLabel": "Exercise Caution",
      "riskLevel": 3,
      "riskText": "Three - Caution",
      "warnings": [
        "UK AIP ENR 1.1 (1.4.5)"
      ],
      "delays": []
    },
    {
      "icao": "HEGN",
      "name": "Hurghada International",
      "city": "Hurghada",
      "country": "Egypt",
      "lat": 27.1784,
      "lon": 33.7994,
      "status": "caution",
      "statusLabel": "Exercise Caution",
      "riskLevel": 3,
      "riskText": "Three - Caution",
      "warnings": [
        "UK AIP ENR 1.1 (1.4.5)"
      ],
      "delays": []
    },
    {
      "icao": "HESH",
      "name": "Sharm El Sheikh International",
      "city": "Sharm El Sheikh",
      "country": "Egypt",
      "lat": 27.9773,
      "lon": 34.395,
      "status": "caution",
      "statusLabel": "Exercise Caution",
      "riskLevel": 3,
      "riskText": "Three - Caution",
      "warnings": [
        "UK AIP ENR 1.1 (1.4.5)"
      ],
      "delays": []
    }
  ],
  "summary": {
    "total": 27,
    "closed": 10,
    "atRisk": 6,
    "caution": 5,
    "delayed": 0,
    "operational": 6
  }
}